[
{"id":"2705103177", "title":"Swirl", "source":"https://farm4.staticflickr.com/3143/2705103177_c5686fb904_o.jpg", "longitude":"-122.407386", "latitude":"37.799766"},
{"id":"6298956895", "title":"French Toast", "source":"https://farm7.staticflickr.com/6040/6298956895_3646187c8c_o.jpg", "longitude":"-122.405479", "latitude":"37.790245"},
{"id":"8587209475", "title":"I've tried mapo tofu at dozens of Chinese restaurants & cooked 25 recipes but @Missionstfood's is one of the best! mission chinese food epl1-raw-san-francisco-20130323-P3231306.jpg", "source":"https://farm9.staticflickr.com/8517/8587209475_44fbaa3402_o.jpg", "longitude":"-122.419311", "latitude":"37.761405"},
{"id":"7673870452", "title":"Shrimp & Chicken Gumbo", "source":"https://farm8.staticflickr.com/7113/7673870452_a2e3243cd1_o.jpg", "longitude":"-122.437026", "latitude":"37.766474"},
{"id":"8537310025", "title":"Spiced delta crayfish, Swan Oyster Depot, San Francisco", "source":"https://farm9.staticflickr.com/8513/8537310025_0b22cf3456_o.jpg", "longitude":"-122.420833", "latitude":"37.790833"},
{"id":"5452362229", "title":"Han and Eggs - Mama's on Washington Square - San Francisco, CA", "source":"https://farm6.staticflickr.com/5137/5452362229_bb73f3b4ff_o.jpg", "longitude":"-122.409583", "latitude":"37.801506"},
{"id":"8552958257", "title":"Cinnamon french toast with chocolate sauce & fresh fruit", "source":"https://farm9.staticflickr.com/8099/8552958257_4036f27e99_o.jpg", "longitude":"-122.410408", "latitude":"37.800865"},
{"id":"5652612180", "title":"Diner", "source":"https://farm6.staticflickr.com/5025/5652612180_b13fc88917_o.jpg", "longitude":"-122.293968", "latitude":"37.843833"},
{"id":"2187676537", "title":"fresh bread bokeh", "source":"https://farm3.staticflickr.com/2387/2187676537_b85c04d636_o.jpg", "longitude":"-122.275772", "latitude":"37.808427"},
{"id":"8216194859", "title":"Sightglass Coffee", "source":"https://farm9.staticflickr.com/8203/8216194859_a4e085fb05_o.jpg", "longitude":"-122.408477", "latitude":"37.777024"},
{"id":"3564865690", "title":"Crab Louis Salad", "source":"https://farm3.staticflickr.com/2367/3564865690_5693f948d3_o.jpg", "longitude":"-122.401953", "latitude":"37.803528"},
{"id":"403114026", "title":"New Cake Sandwitch", "source":"https://farm1.staticflickr.com/128/403114026_954022d292_o.jpg", "longitude":"-122.424902", "latitude":"37.776795"},
{"id":"5646884575", "title":"Brunch at the Grove", "source":"https://farm6.staticflickr.com/5148/5646884575_42d6e4c384_o.jpg", "longitude":"-122.433667", "latitude":"37.788333"},
{"id":"247237788", "title":"Treasure Rolls", "source":"https://farm1.staticflickr.com/84/247237788_90f9c6e459_o.jpg", "longitude":"-122.466536", "latitude":"37.762326"},
{"id":"8584440338", "title":"Benidet & Potato Hash", "source":"https://farm9.staticflickr.com/8104/8584440338_e61f83fb86_o.jpg", "longitude":"-122.419082", "latitude":"37.782646"},
{"id":"5587435727", "title":"Hong Kong Lounge - Dim Sum", "source":"https://farm6.staticflickr.com/5019/5587435727_42372af7c4_o.jpg", "longitude":"-122.47647", "latitude":"37.780529"},
{"id":"5705955031", "title":"Lamb belly potato skins", "source":"https://farm4.staticflickr.com/3593/5705955031_333ca9a6b1_o.jpg", "longitude":"-122.419881", "latitude":"37.76007"},
{"id":"6822271254", "title":"San Francisco - Mission District: Mission Chinese Food - Thrice Cooked Bacon", "source":"https://farm8.staticflickr.com/7054/6822271254_9638d93475_o.jpg", "longitude":"-122.419517", "latitude":"37.761213"},
{"id":"5396152166", "title":"Chili Cheese Fries - Gott's Roadside - San Francisco, CA", "source":"https://farm5.staticflickr.com/4102/5396152166_b0409b28a2_o.jpg", "longitude":"-122.394188", "latitude":"37.796107"},
{"id":"6156562948", "title":"irving street special", "source":"https://farm7.staticflickr.com/6061/6156562948_e249eddb03_o.jpg", "longitude":"-122.46571", "latitude":"37.764277"},
{"id":"2372654423", "title":"Spring Rolls", "source":"https://farm3.staticflickr.com/2091/2372654423_f8215ec501_o.jpg", "longitude":"-122.42144", "latitude":"37.760719"},
{"id":"6367432911", "title":"Organic peppers at farmers market San Francisco", "source":"https://farm7.staticflickr.com/6111/6367432911_dbc4b9c549_o.jpg", "longitude":"-122.392501", "latitude":"37.792693"},
{"id":"6551144359", "title":"Pork katsu with curry", "source":"https://farm8.staticflickr.com/7013/6551144359_a6c068d2a6_o.jpg", "longitude":"-122.47792", "latitude":"37.780448"},
{"id":"244416461", "title":"Mars Bar stops serving food at 8pm, so Betsy, Alison and I had to go elsewhere for a bite. That place ended up being the nearby I Heart Sushi & Teriyaki. Suck it, Mars Bar.", "source":"https://farm1.staticflickr.com/90/244416461_774536412f_o.jpg", "longitude":"-122.407838", "latitude":"37.766486"},
{"id":"2172352881", "title":"Enchiladas Salvadorena", "source":"https://farm3.staticflickr.com/2091/2172352881_3c4f7e7c57_o.jpg", "longitude":"-122.420407", "latitude":"37.745208"},
{"id":"4270945076", "title":"San Francisco, Market Place and Ferries", "source":"https://farm5.staticflickr.com/4066/4270945076_997c3e4045_o.jpg", "longitude":"-122.393574", "latitude":"37.795635"},
{"id":"3661778760", "title":"brunch at Brenda's French Soul Food", "source":"https://farm3.staticflickr.com/2461/3661778760_4a55f755dc_o.jpg", "longitude":"-122.419082", "latitude":"37.782646"},
{"id":"2372653751", "title":"Sushi Plate (vegan)", "source":"https://farm3.staticflickr.com/2022/2372653751_909d0af7c0_o.jpg", "longitude":"-122.42144", "latitude":"37.760719"},
{"id":"4965692277", "title":"Crab Melt", "source":"https://farm5.staticflickr.com/4128/4965692277_15001bddc3_o.jpg", "longitude":"-122.428787", "latitude":"37.767635"},
{"id":"6804523449", "title":"Pork Belly on Risotto", "source":"https://farm8.staticflickr.com/7011/6804523449_f01a11ab97_o.jpg", "longitude":"-122.404232", "latitude":"37.790023"},
{"id":"6822271642", "title":"San Francisco - Mission District: Mission Chinese Food - Thrice Cooked Bacon", "source":"https://farm8.staticflickr.com/7208/6822271642_ecf9c9e753_o.jpg", "longitude":"-122.419517", "latitude":"37.761213"},
{"id":"2991933263", "title":"Best Nachos in the World, San Francisco", "source":"https://farm4.staticflickr.com/3016/2991933263_3a8d705cbd_o.jpg", "longitude":"-122.405167", "latitude":"37.806558"},
{"id":"3649950640", "title":"Vada Sambar", "source":"https://farm4.staticflickr.com/3608/3649950640_4cf63c9bf3_o.jpg", "longitude":"-122.421089", "latitude":"37.757026"},
{"id":"2748386958", "title":"noodles with shrimp and scallops", "source":"https://farm4.staticflickr.com/3144/2748386958_cdd359954b_o.jpg", "longitude":"-122.466247", "latitude":"37.763328"},
{"id":"8538414540", "title":"Combination salad, Swan Oyster Depot, San Francisco", "source":"https://farm9.staticflickr.com/8244/8538414540_909371528d_o.jpg", "longitude":"-122.420833", "latitude":"37.790833"},
{"id":"2930769750", "title":"tofu curry rice bowl", "source":"https://farm4.staticflickr.com/3275/2930769750_bdabc008d4_o.jpg", "longitude":"-122.403193", "latitude":"37.789758"},
{"id":"5331521656", "title":"IMG_0190", "source":"https://farm6.staticflickr.com/5288/5331521656_f2d5ec0394_o.jpg", "longitude":"-122.265834", "latitude":"37.529333"},
{"id":"3651345922", "title":"Pizzeria Delfina", "source":"https://farm3.staticflickr.com/2447/3651345922_bed57f4e5e_o.jpg", "longitude":"-122.424079", "latitude":"37.761558"},
{"id":"6551143387", "title":"Shrimp and calamari Volcano plate", "source":"https://farm8.staticflickr.com/7002/6551143387_3ff298b9a8_o.jpg", "longitude":"-122.47792", "latitude":"37.780448"},
{"id":"3651324176", "title":"Pizzeria Delfina", "source":"https://farm4.staticflickr.com/3576/3651324176_33e4dbb0fa_o.jpg", "longitude":"-122.424079", "latitude":"37.761558"},
{"id":"8897784367", "title":"Wayfare Tavern.  San Francisco", "source":"https://farm3.staticflickr.com/2885/8897784367_3b51c859b6_o.jpg", "longitude":"-122.402351", "latitude":"37.794016"},
{"id":"2372656485", "title":"Soba Noodle Salad", "source":"https://farm3.staticflickr.com/2192/2372656485_f3471bdd24_o.jpg", "longitude":"-122.42144", "latitude":"37.760719"},
{"id":"3660966855", "title":"jambalaya with salad", "source":"https://farm3.staticflickr.com/2568/3660966855_2a83752f2c_o.jpg", "longitude":"-122.419082", "latitude":"37.782646"},
{"id":"3660961815", "title":"bananas foster french toast", "source":"https://farm3.staticflickr.com/2551/3660961815_945716f626_o.jpg", "longitude":"-122.419082", "latitude":"37.782646"},
{"id":"3660957217", "title":"red beans and rice with andouille sausage", "source":"https://farm4.staticflickr.com/3315/3660957217_9b469ca4e1_o.jpg", "longitude":"-122.419082", "latitude":"37.782646"},
{"id":"2074071940", "title":"Japaness Food", "source":"https://farm3.staticflickr.com/2135/2074071940_c1e79689ff_o.jpg", "longitude":"-122.408959", "latitude":"37.787297"},
{"id":"3054757467", "title":"Kirin - Dinner", "source":"https://farm4.staticflickr.com/3023/3054757467_f1e0a4aa60_o.jpg", "longitude":"-122.485046", "latitude":"37.780014"},
{"id":"5944375946", "title":"IMG_2324", "source":"https://farm7.staticflickr.com/6008/5944375946_8d8192bb85_o.jpg", "longitude":"-122.420911", "latitude":"37.780755"},
{"id":"5254075486", "title":"IMG_0225", "source":"https://farm6.staticflickr.com/5162/5254075486_a661bce1dc_o.jpg", "longitude":"-122.266167", "latitude":"37.529666"},
{"id":"5661605400", "title":"Chinese almond cookies", "source":"https://farm6.staticflickr.com/5022/5661605400_8a809dd1a1_o.jpg", "longitude":"-122.407768", "latitude":"37.795894"},
{"id":"5330912543", "title":"IMG_0192", "source":"https://farm6.staticflickr.com/5281/5330912543_85a550884e_o.jpg", "longitude":"-122.265834", "latitude":"37.529333"},
{"id":"7491156452", "title":"Pier 23- Fish N Chips", "source":"https://farm8.staticflickr.com/7264/7491156452_232d89902b_o.jpg", "longitude":"-122.399786", "latitude":"37.803612"}
]
