[
{"id":"2705103177", "title":"Swirl", "source":"https://farm4.staticflickr.com/3143/2705103177_c5686fb904_o.jpg", "longitude":"-122.407386", "latitude":"37.799766"},
{"id":"8288516701", "title":"christmas ham cake", "source":"https://farm9.staticflickr.com/8083/8288516701_4151dd1cd3.jpg", "longitude":"-122.2545", "latitude":"37.793833"},
{"id":"6298956895", "title":"French Toast", "source":"https://farm7.staticflickr.com/6040/6298956895_3646187c8c_o.jpg", "longitude":"-122.405479", "latitude":"37.790245"},
{"id":"8963971899", "title":"Shanghai-Dumpling-King-San-Francisco-Xiao-Long-Bao", "source":"https://farm3.staticflickr.com/2833/8963971899_52f6b1da9f_o.jpg", "longitude":"-122.494167", "latitude":"37.775555"},
{"id":"8587209475", "title":"I've tried mapo tofu at dozens of Chinese restaurants & cooked 25 recipes but @Missionstfood's is one of the best! mission chinese food epl1-raw-san-francisco-20130323-P3231306.jpg", "source":"https://farm9.staticflickr.com/8517/8587209475_44fbaa3402_o.jpg", "longitude":"-122.419311", "latitude":"37.761405"},
{"id":"7673870452", "title":"Shrimp & Chicken Gumbo", "source":"https://farm8.staticflickr.com/7113/7673870452_a2e3243cd1_o.jpg", "longitude":"-122.437026", "latitude":"37.766474"},
{"id":"8537310025", "title":"Spiced delta crayfish, Swan Oyster Depot, San Francisco", "source":"https://farm9.staticflickr.com/8513/8537310025_0b22cf3456_o.jpg", "longitude":"-122.420833", "latitude":"37.790833"},
{"id":"5452362229", "title":"Han and Eggs - Mama's on Washington Square - San Francisco, CA", "source":"https://farm6.staticflickr.com/5137/5452362229_bb73f3b4ff_o.jpg", "longitude":"-122.409583", "latitude":"37.801506"},
{"id":"3342555085", "title":"combination fried rice", "source":"https://farm4.staticflickr.com/3385/3342555085_d521de75d3.jpg", "longitude":"-122.404716", "latitude":"37.784141"},
{"id":"2177465074", "title":"bom chica wa wa...", "source":"https://farm3.staticflickr.com/2131/2177465074_4a2e74ffe8.jpg", "longitude":"-122.396148", "latitude":"37.795093"},
{"id":"8552958257", "title":"Cinnamon french toast with chocolate sauce & fresh fruit", "source":"https://farm9.staticflickr.com/8099/8552958257_4036f27e99_o.jpg", "longitude":"-122.410408", "latitude":"37.800865"},
{"id":"8965166308", "title":"Shanghai-Dumpling-King-San-Francisco_0009", "source":"https://farm6.staticflickr.com/5456/8965166308_e555d72ece_o.jpg", "longitude":"-122.494167", "latitude":"37.775555"},
{"id":"5590368983", "title":"Pizzeria Defina: Margherita", "source":"https://farm6.staticflickr.com/5026/5590368983_f1ce118029.jpg", "longitude":"-122.424079", "latitude":"37.761558"},
{"id":"2187676537", "title":"fresh bread bokeh", "source":"https://farm3.staticflickr.com/2387/2187676537_b85c04d636_o.jpg", "longitude":"-122.275772", "latitude":"37.808427"},
{"id":"4870406535", "title":"Fraiche Soy Froyo", "source":"https://farm5.staticflickr.com/4101/4870406535_5f84582646_o.jpg", "longitude":"-122.433485", "latitude":"37.787496"},
{"id":"8216194859", "title":"Sightglass Coffee", "source":"https://farm9.staticflickr.com/8203/8216194859_a4e085fb05_o.jpg", "longitude":"-122.408477", "latitude":"37.777024"},
{"id":"5396151144", "title":"Western Bacon Blue Ring with Extra Tomato - Gott's Roadside - San Francisco, CA", "source":"https://farm6.staticflickr.com/5299/5396151144_4ef58e22a2_o.jpg", "longitude":"-122.394188", "latitude":"37.796107"},
{"id":"4744250055", "title":"Hot Dog @ Let's Be Frank", "source":"https://farm5.staticflickr.com/4079/4744250055_d134433fd7.jpg", "longitude":"-122.468301", "latitude":"37.805774"},
{"id":"5878103472", "title":"", "source":"https://farm6.staticflickr.com/5070/5878103472_6d49e35c3c.jpg", "longitude":"-122.394336", "latitude":"37.795987"},
{"id":"5590948800", "title":"Pizzeria Defina: Pizzas", "source":"https://farm6.staticflickr.com/5026/5590948800_ed05462b07.jpg", "longitude":"-122.424079", "latitude":"37.761558"},
{"id":"247237788", "title":"Treasure Rolls", "source":"https://farm1.staticflickr.com/84/247237788_90f9c6e459_o.jpg", "longitude":"-122.466536", "latitude":"37.762326"},
{"id":"5705955031", "title":"Lamb belly potato skins", "source":"https://farm4.staticflickr.com/3593/5705955031_333ca9a6b1_o.jpg", "longitude":"-122.419881", "latitude":"37.76007"},
{"id":"8084400872", "title":"Veggie empanada with hot sauce and four shot espresso", "source":"https://farm9.staticflickr.com/8186/8084400872_5ec5cf2b18_o.jpg", "longitude":"-122.431167", "latitude":"37.7515"},
{"id":"5396152166", "title":"Chili Cheese Fries - Gott's Roadside - San Francisco, CA", "source":"https://farm5.staticflickr.com/4102/5396152166_b0409b28a2_o.jpg", "longitude":"-122.394188", "latitude":"37.796107"},
{"id":"3139939252", "title":"prawns", "source":"https://farm4.staticflickr.com/3108/3139939252_4d52991860_o.jpg", "longitude":"-122.411298", "latitude":"37.809279"},
{"id":"4640094353", "title":"eggs florentine", "source":"https://farm5.staticflickr.com/4071/4640094353_2b1cfe433b.jpg", "longitude":"-122.399856", "latitude":"37.608585"},
{"id":"6305984017", "title":"DSC-111023-120642.jpg", "source":"https://farm7.staticflickr.com/6109/6305984017_84b622b314_o.jpg", "longitude":"-122.39351", "latitude":"37.795203"},
{"id":"5521784615", "title":"Sushi Bistro, Mission District, San Francisco", "source":"https://farm6.staticflickr.com/5251/5521784615_8b47907615.jpg", "longitude":"-122.408334", "latitude":"37.752833"},
{"id":"5149617274", "title":"", "source":"https://farm5.staticflickr.com/4129/5149617274_2b4c0976e2.jpg", "longitude":"-122.413597", "latitude":"37.787654"},
{"id":"5652612180", "title":"Diner", "source":"https://farm6.staticflickr.com/5025/5652612180_b13fc88917_o.jpg", "longitude":"-122.293968", "latitude":"37.843833"},
{"id":"8963972085", "title":"Shanghai-Dumpling-King-San-Francisco-Fried-Buns", "source":"https://farm4.staticflickr.com/3820/8963972085_050379c6b2_o.jpg", "longitude":"-122.494167", "latitude":"37.775555"},
{"id":"5572848620", "title":"Mission Chinese Food - San Francisco -3", "source":"https://farm6.staticflickr.com/5223/5572848620_c36bd34550_o.jpg", "longitude":"-122.419445", "latitude":"37.761111"},
{"id":"5572848668", "title":"Mission Chinese Food - San Francisco -4", "source":"https://farm6.staticflickr.com/5017/5572848668_a1481299ab_o.jpg", "longitude":"-122.419445", "latitude":"37.761111"},
{"id":"5868873164", "title":"Day 14 of 365: Sushiritto", "source":"https://farm4.staticflickr.com/3082/5868873164_fc91964e24.jpg", "longitude":"-122.401092", "latitude":"37.787971"},
{"id":"3564865690", "title":"Crab Louis Salad", "source":"https://farm3.staticflickr.com/2367/3564865690_5693f948d3_o.jpg", "longitude":"-122.401953", "latitude":"37.803528"},
{"id":"403114026", "title":"New Cake Sandwitch", "source":"https://farm1.staticflickr.com/128/403114026_954022d292_o.jpg", "longitude":"-122.424902", "latitude":"37.776795"},
{"id":"6242333923", "title":"Gazpacho*", "source":"https://farm7.staticflickr.com/6031/6242333923_47b8986441.jpg", "longitude":"-122.468419", "latitude":"37.770799"},
{"id":"3213329402", "title":"Pizzeria Delfina San Francisco - Margherita-Pizza", "source":"https://farm4.staticflickr.com/3497/3213329402_a85bc77e93_o.jpg", "longitude":"-122.433889", "latitude":"37.788888"},
{"id":"8687904405", "title":"San Francisco 2013", "source":"https://farm8.staticflickr.com/7054/8687904405_913532874e.jpg", "longitude":"-122.419167", "latitude":"37.782833"},
{"id":"4258019759", "title":"Sushi Bistro, Mission District, San Francisco", "source":"https://farm5.staticflickr.com/4039/4258019759_680350fed8.jpg", "longitude":"-122.41188", "latitude":"37.752899"},
{"id":"2692043012", "title":"San Francisco, California: Stacks", "source":"https://farm4.staticflickr.com/3205/2692043012_320b9bfb85_o.jpg", "longitude":"-122.424784", "latitude":"37.776617"},
{"id":"5646884575", "title":"Brunch at the Grove", "source":"https://farm6.staticflickr.com/5148/5646884575_42d6e4c384_o.jpg", "longitude":"-122.433667", "latitude":"37.788333"},
{"id":"8584440338", "title":"Benidet & Potato Hash", "source":"https://farm9.staticflickr.com/8104/8584440338_e61f83fb86_o.jpg", "longitude":"-122.419082", "latitude":"37.782646"},
{"id":"3373100803", "title":"Tofu combo", "source":"https://farm4.staticflickr.com/3627/3373100803_62d28462e5_o.jpg", "longitude":"-122.395747", "latitude":"37.79537"},
{"id":"5587435727", "title":"Hong Kong Lounge - Dim Sum", "source":"https://farm6.staticflickr.com/5019/5587435727_42372af7c4_o.jpg", "longitude":"-122.47647", "latitude":"37.780529"},
{"id":"13371123023", "title":"4th Course: Trout Roe", "source":"https://farm8.staticflickr.com/7209/13371123023_98f3c2207e.jpg", "longitude":"-122.39212", "latitude":"37.779369"},
{"id":"4919724465", "title":"San Francisco Street Food Festival 2010", "source":"https://farm5.staticflickr.com/4082/4919724465_36a4c414e9.jpg", "longitude":"-122.414013", "latitude":"37.750956"},
{"id":"5473533749", "title":"Fried Yam Sticks - Genki Ramen - San Francisco, CA", "source":"https://farm6.staticflickr.com/5091/5473533749_bed1891c30_o.jpg", "longitude":"-122.461835", "latitude":"37.781496"},
{"id":"4971898106", "title":"Sourdough turtles", "source":"https://farm5.staticflickr.com/4149/4971898106_4e18f6c144.jpg", "longitude":"-122.410845", "latitude":"37.808427"},
{"id":"8265356848", "title":"Tacos", "source":"https://farm9.staticflickr.com/8493/8265356848_931850b913.jpg", "longitude":"-122.436729", "latitude":"37.800758"}
]
